{
  "count": 142,
  "properties": [
    {
      "property_id": "CH-1001",
      "name": "Concord Heritage Savannah",
      "brand": "Concord Heritage",
      "market_segment": "Upscale full-service",
      "region": "Southeast",
      "city": "Savannah",
      "state": "GA",
      "lat": 32.08,
      "lng": -81.11,
      "rooms": 168,
      "adr_usd": 230.08,
      "occupancy_pct": 67.1,
      "revpar_usd": 154.38,
      "goppar_usd": 57.56,
      "otb_pace_vs_ly_pct": 6.1,
      "nps": 31
    },
    {
      "property_id": "CH-1002",
      "name": "Concord Select Chicago",
      "brand": "Concord Select",
      "market_segment": "Upper-midscale select",
      "region": "Midwest",
      "city": "Chicago",
      "state": "IL",
      "lat": 41.91,
      "lng": -87.64,
      "rooms": 113,
      "adr_usd": 150.51,
      "occupancy_pct": 74.9,
      "revpar_usd": 112.73,
      "goppar_usd": 41.73,
      "otb_pace_vs_ly_pct": -5.1,
      "nps": 32
    },
    {
      "property_id": "CH-1003",
      "name": "Concord Grand Scottsdale",
      "brand": "Concord Grand",
      "market_segment": "Luxury",
      "region": "Mountain West",
      "city": "Scottsdale",
      "state": "AZ",
      "lat": 33.51,
      "lng": -111.94,
      "rooms": 388,
      "adr_usd": 414.27,
      "occupancy_pct": 78,
      "revpar_usd": 323.13,
      "goppar_usd": 106.24,
      "otb_pace_vs_ly_pct": -5.1,
      "nps": 78
    },
    {
      "property_id": "CH-1004",
      "name": "Concord Select St. Louis",
      "brand": "Concord Select",
      "market_segment": "Upper-midscale select",
      "region": "Midwest",
      "city": "St. Louis",
      "state": "MO",
      "lat": 38.62,
      "lng": -90.23,
      "rooms": 96,
      "adr_usd": 154.98,
      "occupancy_pct": 66.6,
      "revpar_usd": 103.22,
      "goppar_usd": 40.89,
      "otb_pace_vs_ly_pct": 8.3,
      "nps": 41
    },
    {
      "property_id": "CH-1005",
      "name": "Concord Express New Orleans",
      "brand": "Concord Express",
      "market_segment": "Midscale select",
      "region": "South Central",
      "city": "New Orleans",
      "state": "LA",
      "lat": 29.99,
      "lng": -90.05,
      "rooms": 81,
      "adr_usd": 120.6,
      "occupancy_pct": 69.7,
      "revpar_usd": 84.06,
      "goppar_usd": 35.49,
      "otb_pace_vs_ly_pct": -2.3,
      "nps": 60
    },
    {
      "property_id": "CH-1006",
      "name": "Concord Select Newark",
      "brand": "Concord Select",
      "market_segment": "Upper-midscale select",
      "region": "Northeast",
      "city": "Newark",
      "state": "NJ",
      "lat": 40.73,
      "lng": -74.18,
      "rooms": 149,
      "adr_usd": 140.74,
      "occupancy_pct": 67.9,
      "revpar_usd": 95.56,
      "goppar_usd": 32.32,
      "otb_pace_vs_ly_pct": 3.1,
      "nps": 59
    },
    {
      "property_id": "CH-1007",
      "name": "Concord Select Brooklyn",
      "brand": "Concord Select",
      "market_segment": "Upper-midscale select",
      "region": "Northeast",
      "city": "Brooklyn",
      "state": "NY",
      "lat": 40.71,
      "lng": -73.97,
      "rooms": 131,
      "adr_usd": 170.64,
      "occupancy_pct": 80.1,
      "revpar_usd": 136.68,
      "goppar_usd": 45.8,
      "otb_pace_vs_ly_pct": 4.8,
      "nps": 56
    },
    {
      "property_id": "CH-1008",
      "name": "Concord Express San Diego",
      "brand": "Concord Express",
      "market_segment": "Midscale select",
      "region": "West Coast",
      "city": "San Diego",
      "state": "CA",
      "lat": 32.75,
      "lng": -117.2,
      "rooms": 78,
      "adr_usd": 125.21,
      "occupancy_pct": 65.8,
      "revpar_usd": 82.39,
      "goppar_usd": 32.39,
      "otb_pace_vs_ly_pct": 5.1,
      "nps": 62
    },
    {
      "property_id": "CH-1009",
      "name": "Concord Express Memphis",
      "brand": "Concord Express",
      "market_segment": "Midscale select",
      "region": "Southeast",
      "city": "Memphis",
      "state": "TN",
      "lat": 35.14,
      "lng": -90.06,
      "rooms": 97,
      "adr_usd": 120.53,
      "occupancy_pct": 65.7,
      "revpar_usd": 79.19,
      "goppar_usd": 30.55,
      "otb_pace_vs_ly_pct": 0.2,
      "nps": 52
    },
    {
      "property_id": "CH-1010",
      "name": "Concord Express Milwaukee",
      "brand": "Concord Express",
      "market_segment": "Midscale select",
      "region": "Midwest",
      "city": "Milwaukee",
      "state": "WI",
      "lat": 43.02,
      "lng": -87.87,
      "rooms": 87,
      "adr_usd": 127.04,
      "occupancy_pct": 74.1,
      "revpar_usd": 94.14,
      "goppar_usd": 38.77,
      "otb_pace_vs_ly_pct": 3,
      "nps": 48
    },
    {
      "property_id": "CH-1011",
      "name": "Concord Resorts Portland",
      "brand": "Concord Resorts",
      "market_segment": "Resort",
      "region": "West Coast",
      "city": "Portland",
      "state": "OR",
      "lat": 45.48,
      "lng": -122.64,
      "rooms": 428,
      "adr_usd": 562.22,
      "occupancy_pct": 69.3,
      "revpar_usd": 389.62,
      "goppar_usd": 133.79,
      "otb_pace_vs_ly_pct": -5.5,
      "nps": 60
    },
    {
      "property_id": "CH-1012",
      "name": "Concord Select Baltimore",
      "brand": "Concord Select",
      "market_segment": "Upper-midscale select",
      "region": "Northeast",
      "city": "Baltimore",
      "state": "MD",
      "lat": 39.29,
      "lng": -76.58,
      "rooms": 150,
      "adr_usd": 156.8,
      "occupancy_pct": 83.3,
      "revpar_usd": 130.61,
      "goppar_usd": 49.77,
      "otb_pace_vs_ly_pct": -4.8,
      "nps": 32
    },
    {
      "property_id": "CH-1013",
      "name": "Concord Select Fort Lauderdale",
      "brand": "Concord Select",
      "market_segment": "Upper-midscale select",
      "region": "Southeast",
      "city": "Fort Lauderdale",
      "state": "FL",
      "lat": 26.11,
      "lng": -80.16,
      "rooms": 95,
      "adr_usd": 191.28,
      "occupancy_pct": 76.1,
      "revpar_usd": 145.56,
      "goppar_usd": 48.89,
      "otb_pace_vs_ly_pct": -1.7,
      "nps": 31
    },
    {
      "property_id": "CH-1014",
      "name": "Concord Select Detroit",
      "brand": "Concord Select",
      "market_segment": "Upper-midscale select",
      "region": "Midwest",
      "city": "Detroit",
      "state": "MI",
      "lat": 42.33,
      "lng": -83.04,
      "rooms": 127,
      "adr_usd": 177.43,
      "occupancy_pct": 75.1,
      "revpar_usd": 133.25,
      "goppar_usd": 52.04,
      "otb_pace_vs_ly_pct": 1.8,
      "nps": 62
    },
    {
      "property_id": "CH-1015",
      "name": "Concord Heritage Cambridge",
      "brand": "Concord Heritage",
      "market_segment": "Upscale full-service",
      "region": "Northeast",
      "city": "Cambridge",
      "state": "MA",
      "lat": 42.36,
      "lng": -71.08,
      "rooms": 190,
      "adr_usd": 197.31,
      "occupancy_pct": 76.6,
      "revpar_usd": 151.14,
      "goppar_usd": 63.14,
      "otb_pace_vs_ly_pct": 1.4,
      "nps": 53
    },
    {
      "property_id": "CH-1016",
      "name": "Concord Heritage Los Angeles",
      "brand": "Concord Heritage",
      "market_segment": "Upscale full-service",
      "region": "West Coast",
      "city": "Los Angeles",
      "state": "CA",
      "lat": 34.03,
      "lng": -118.22,
      "rooms": 212,
      "adr_usd": 202.04,
      "occupancy_pct": 69.7,
      "revpar_usd": 140.82,
      "goppar_usd": 47.31,
      "otb_pace_vs_ly_pct": 1.7,
      "nps": 30
    },
    {
      "property_id": "CH-1017",
      "name": "Concord Select Scottsdale",
      "brand": "Concord Select",
      "market_segment": "Upper-midscale select",
      "region": "Mountain West",
      "city": "Scottsdale",
      "state": "AZ",
      "lat": 33.46,
      "lng": -111.92,
      "rooms": 111,
      "adr_usd": 187.09,
      "occupancy_pct": 83.5,
      "revpar_usd": 156.22,
      "goppar_usd": 56.85,
      "otb_pace_vs_ly_pct": 4.1,
      "nps": 28
    },
    {
      "property_id": "CH-1018",
      "name": "Concord Select New York",
      "brand": "Concord Select",
      "market_segment": "Upper-midscale select",
      "region": "Northeast",
      "city": "New York",
      "state": "NY",
      "lat": 40.79,
      "lng": -74.02,
      "rooms": 124,
      "adr_usd": 237.05,
      "occupancy_pct": 66.8,
      "revpar_usd": 158.35,
      "goppar_usd": 68.21,
      "otb_pace_vs_ly_pct": 2.9,
      "nps": 47
    },
    {
      "property_id": "CH-1019",
      "name": "Concord Select Portland",
      "brand": "Concord Select",
      "market_segment": "Upper-midscale select",
      "region": "West Coast",
      "city": "Portland",
      "state": "OR",
      "lat": 45.51,
      "lng": -122.67,
      "rooms": 109,
      "adr_usd": 176.11,
      "occupancy_pct": 74.7,
      "revpar_usd": 131.55,
      "goppar_usd": 48.66,
      "otb_pace_vs_ly_pct": 2.6,
      "nps": 51
    },
    {
      "property_id": "CH-1020",
      "name": "Concord Select Hilton Head",
      "brand": "Concord Select",
      "market_segment": "Upper-midscale select",
      "region": "Southeast",
      "city": "Hilton Head",
      "state": "SC",
      "lat": 32.21,
      "lng": -80.73,
      "rooms": 109,
      "adr_usd": 151.1,
      "occupancy_pct": 70.3,
      "revpar_usd": 106.22,
      "goppar_usd": 36.65,
      "otb_pace_vs_ly_pct": 0.3,
      "nps": 54
    },
    {
      "property_id": "CH-1021",
      "name": "Concord Express Newark",
      "brand": "Concord Express",
      "market_segment": "Midscale select",
      "region": "Northeast",
      "city": "Newark",
      "state": "NJ",
      "lat": 40.7,
      "lng": -74.16,
      "rooms": 82,
      "adr_usd": 139.87,
      "occupancy_pct": 70.4,
      "revpar_usd": 98.47,
      "goppar_usd": 39.47,
      "otb_pace_vs_ly_pct": 11.4,
      "nps": 62
    },
    {
      "property_id": "CH-1022",
      "name": "Concord Heritage Pittsburgh",
      "brand": "Concord Heritage",
      "market_segment": "Upscale full-service",
      "region": "Northeast",
      "city": "Pittsburgh",
      "state": "PA",
      "lat": 40.45,
      "lng": -80.02,
      "rooms": 178,
      "adr_usd": 213.67,
      "occupancy_pct": 70.1,
      "revpar_usd": 149.78,
      "goppar_usd": 53.58,
      "otb_pace_vs_ly_pct": 4.4,
      "nps": 35
    },
    {
      "property_id": "CH-1023",
      "name": "Concord Heritage Dallas",
      "brand": "Concord Heritage",
      "market_segment": "Upscale full-service",
      "region": "South Central",
      "city": "Dallas",
      "state": "TX",
      "lat": 32.8,
      "lng": -96.76,
      "rooms": 201,
      "adr_usd": 215.3,
      "occupancy_pct": 69.6,
      "revpar_usd": 149.85,
      "goppar_usd": 65.54,
      "otb_pace_vs_ly_pct": 7.4,
      "nps": 33
    },
    {
      "property_id": "CH-1024",
      "name": "Concord Express Nashville",
      "brand": "Concord Express",
      "market_segment": "Midscale select",
      "region": "Southeast",
      "city": "Nashville",
      "state": "TN",
      "lat": 36.2,
      "lng": -86.75,
      "rooms": 97,
      "adr_usd": 148.83,
      "occupancy_pct": 64.2,
      "revpar_usd": 95.55,
      "goppar_usd": 39.34,
      "otb_pace_vs_ly_pct": 3.1,
      "nps": 47
    },
    {
      "property_id": "CH-1025",
      "name": "Concord Express Anaheim",
      "brand": "Concord Express",
      "market_segment": "Midscale select",
      "region": "West Coast",
      "city": "Anaheim",
      "state": "CA",
      "lat": 33.84,
      "lng": -117.95,
      "rooms": 107,
      "adr_usd": 120.08,
      "occupancy_pct": 66.3,
      "revpar_usd": 79.61,
      "goppar_usd": 28.32,
      "otb_pace_vs_ly_pct": -1.1,
      "nps": 37
    },
    {
      "property_id": "CH-1026",
      "name": "Concord Select Memphis",
      "brand": "Concord Select",
      "market_segment": "Upper-midscale select",
      "region": "Southeast",
      "city": "Memphis",
      "state": "TN",
      "lat": 35.18,
      "lng": -90.06,
      "rooms": 137,
      "adr_usd": 151.57,
      "occupancy_pct": 81.2,
      "revpar_usd": 123.07,
      "goppar_usd": 54.8,
      "otb_pace_vs_ly_pct": -4.3,
      "nps": 54
    },
    {
      "property_id": "CH-1027",
      "name": "Concord Heritage Miami",
      "brand": "Concord Heritage",
      "market_segment": "Upscale full-service",
      "region": "Southeast",
      "city": "Miami",
      "state": "FL",
      "lat": 25.74,
      "lng": -80.18,
      "rooms": 202,
      "adr_usd": 237.51,
      "occupancy_pct": 76.4,
      "revpar_usd": 181.46,
      "goppar_usd": 60.17,
      "otb_pace_vs_ly_pct": 10.2,
      "nps": 54
    },
    {
      "property_id": "CH-1028",
      "name": "Concord Select Pittsburgh",
      "brand": "Concord Select",
      "market_segment": "Upper-midscale select",
      "region": "Northeast",
      "city": "Pittsburgh",
      "state": "PA",
      "lat": 40.42,
      "lng": -80.03,
      "rooms": 102,
      "adr_usd": 188.59,
      "occupancy_pct": 74.3,
      "revpar_usd": 140.12,
      "goppar_usd": 58.17,
      "otb_pace_vs_ly_pct": 11.1,
      "nps": 57
    },
    {
      "property_id": "CH-1029",
      "name": "Concord Express Santa Barbara",
      "brand": "Concord Express",
      "market_segment": "Midscale select",
      "region": "West Coast",
      "city": "Santa Barbara",
      "state": "CA",
      "lat": 34.44,
      "lng": -119.69,
      "rooms": 118,
      "adr_usd": 140.83,
      "occupancy_pct": 76.2,
      "revpar_usd": 107.31,
      "goppar_usd": 34.79,
      "otb_pace_vs_ly_pct": 5.3,
      "nps": 61
    },
    {
      "property_id": "CH-1030",
      "name": "Concord Select Scottsdale",
      "brand": "Concord Select",
      "market_segment": "Upper-midscale select",
      "region": "Mountain West",
      "city": "Scottsdale",
      "state": "AZ",
      "lat": 33.53,
      "lng": -111.96,
      "rooms": 126,
      "adr_usd": 188.44,
      "occupancy_pct": 83.8,
      "revpar_usd": 157.91,
      "goppar_usd": 50.56,
      "otb_pace_vs_ly_pct": -1.5,
      "nps": 30
    },
    {
      "property_id": "CH-1031",
      "name": "Concord Resorts St. Thomas",
      "brand": "Concord Resorts",
      "market_segment": "Resort",
      "region": "Mexico / Caribbean",
      "city": "St. Thomas",
      "state": "VI",
      "lat": 18.32,
      "lng": -64.93,
      "rooms": 259,
      "adr_usd": 645.75,
      "occupancy_pct": 75.3,
      "revpar_usd": 486.25,
      "goppar_usd": 165.39,
      "otb_pace_vs_ly_pct": -2.3,
      "nps": 56
    },
    {
      "property_id": "CH-1032",
      "name": "Concord Grand Mexico City",
      "brand": "Concord Grand",
      "market_segment": "Luxury",
      "region": "Mexico / Caribbean",
      "city": "Mexico City",
      "state": "MX",
      "lat": 19.45,
      "lng": -99.17,
      "rooms": 322,
      "adr_usd": 419.42,
      "occupancy_pct": 76.4,
      "revpar_usd": 320.44,
      "goppar_usd": 132.8,
      "otb_pace_vs_ly_pct": 7.7,
      "nps": 60
    },
    {
      "property_id": "CH-1033",
      "name": "Concord Select New York",
      "brand": "Concord Select",
      "market_segment": "Upper-midscale select",
      "region": "Northeast",
      "city": "New York",
      "state": "NY",
      "lat": 40.72,
      "lng": -73.99,
      "rooms": 143,
      "adr_usd": 190.4,
      "occupancy_pct": 69.4,
      "revpar_usd": 132.14,
      "goppar_usd": 44.18,
      "otb_pace_vs_ly_pct": -2.1,
      "nps": 56
    },
    {
      "property_id": "CH-1034",
      "name": "Concord Grand Playa del Carmen",
      "brand": "Concord Grand",
      "market_segment": "Luxury",
      "region": "Mexico / Caribbean",
      "city": "Playa del Carmen",
      "state": "MX",
      "lat": 20.61,
      "lng": -87.04,
      "rooms": 333,
      "adr_usd": 351.35,
      "occupancy_pct": 77.3,
      "revpar_usd": 271.59,
      "goppar_usd": 105.74,
      "otb_pace_vs_ly_pct": -3.6,
      "nps": 50
    },
    {
      "property_id": "CH-1035",
      "name": "Concord Select Houston",
      "brand": "Concord Select",
      "market_segment": "Upper-midscale select",
      "region": "South Central",
      "city": "Houston",
      "state": "TX",
      "lat": 29.78,
      "lng": -95.4,
      "rooms": 113,
      "adr_usd": 186.77,
      "occupancy_pct": 71.2,
      "revpar_usd": 132.98,
      "goppar_usd": 48.24,
      "otb_pace_vs_ly_pct": -3.9,
      "nps": 48
    },
    {
      "property_id": "CH-1036",
      "name": "Concord Express Scottsdale",
      "brand": "Concord Express",
      "market_segment": "Midscale select",
      "region": "Mountain West",
      "city": "Scottsdale",
      "state": "AZ",
      "lat": 33.51,
      "lng": -111.91,
      "rooms": 84,
      "adr_usd": 141.4,
      "occupancy_pct": 69.6,
      "revpar_usd": 98.41,
      "goppar_usd": 43.54,
      "otb_pace_vs_ly_pct": -5,
      "nps": 62
    },
    {
      "property_id": "CH-1037",
      "name": "Concord Resorts Playa del Carmen",
      "brand": "Concord Resorts",
      "market_segment": "Resort",
      "region": "Mexico / Caribbean",
      "city": "Playa del Carmen",
      "state": "MX",
      "lat": 20.6,
      "lng": -87.08,
      "rooms": 295,
      "adr_usd": 522.4,
      "occupancy_pct": 70.4,
      "revpar_usd": 367.77,
      "goppar_usd": 138.43,
      "otb_pace_vs_ly_pct": 6.9,
      "nps": 65
    },
    {
      "property_id": "CH-1038",
      "name": "Concord Select Houston",
      "brand": "Concord Select",
      "market_segment": "Upper-midscale select",
      "region": "South Central",
      "city": "Houston",
      "state": "TX",
      "lat": 29.76,
      "lng": -95.33,
      "rooms": 104,
      "adr_usd": 178.61,
      "occupancy_pct": 77.4,
      "revpar_usd": 138.24,
      "goppar_usd": 55.6,
      "otb_pace_vs_ly_pct": -3.7,
      "nps": 37
    },
    {
      "property_id": "CH-1039",
      "name": "Concord Select Salt Lake City",
      "brand": "Concord Select",
      "market_segment": "Upper-midscale select",
      "region": "Mountain West",
      "city": "Salt Lake City",
      "state": "UT",
      "lat": 40.76,
      "lng": -111.86,
      "rooms": 96,
      "adr_usd": 149.42,
      "occupancy_pct": 74.6,
      "revpar_usd": 111.47,
      "goppar_usd": 39.68,
      "otb_pace_vs_ly_pct": 0.5,
      "nps": 43
    },
    {
      "property_id": "CH-1040",
      "name": "Concord Cleveland",
      "brand": "Concord",
      "market_segment": "Upper-upscale",
      "region": "Midwest",
      "city": "Cleveland",
      "state": "OH",
      "lat": 41.5,
      "lng": -81.66,
      "rooms": 219,
      "adr_usd": 280.35,
      "occupancy_pct": 68.9,
      "revpar_usd": 193.16,
      "goppar_usd": 82.93,
      "otb_pace_vs_ly_pct": 2.9,
      "nps": 43
    },
    {
      "property_id": "CH-1041",
      "name": "Concord Select Key West",
      "brand": "Concord Select",
      "market_segment": "Upper-midscale select",
      "region": "Southeast",
      "city": "Key West",
      "state": "FL",
      "lat": 24.57,
      "lng": -81.81,
      "rooms": 108,
      "adr_usd": 225.13,
      "occupancy_pct": 81.1,
      "revpar_usd": 182.58,
      "goppar_usd": 62.39,
      "otb_pace_vs_ly_pct": 7.1,
      "nps": 48
    },
    {
      "property_id": "CH-1042",
      "name": "Concord Grand Washington",
      "brand": "Concord Grand",
      "market_segment": "Luxury",
      "region": "Northeast",
      "city": "Washington",
      "state": "DC",
      "lat": 38.92,
      "lng": -77.02,
      "rooms": 387,
      "adr_usd": 368.43,
      "occupancy_pct": 75.2,
      "revpar_usd": 277.06,
      "goppar_usd": 125.86,
      "otb_pace_vs_ly_pct": 1.5,
      "nps": 72
    },
    {
      "property_id": "CH-1043",
      "name": "Concord Select Key West",
      "brand": "Concord Select",
      "market_segment": "Upper-midscale select",
      "region": "Southeast",
      "city": "Key West",
      "state": "FL",
      "lat": 24.56,
      "lng": -81.77,
      "rooms": 135,
      "adr_usd": 186.04,
      "occupancy_pct": 72.9,
      "revpar_usd": 135.62,
      "goppar_usd": 49.3,
      "otb_pace_vs_ly_pct": 1.8,
      "nps": 34
    },
    {
      "property_id": "CH-1044",
      "name": "Concord Atlanta",
      "brand": "Concord",
      "market_segment": "Upper-upscale",
      "region": "Southeast",
      "city": "Atlanta",
      "state": "GA",
      "lat": 33.72,
      "lng": -84.4,
      "rooms": 228,
      "adr_usd": 261.49,
      "occupancy_pct": 74.8,
      "revpar_usd": 195.59,
      "goppar_usd": 70.16,
      "otb_pace_vs_ly_pct": -3.3,
      "nps": 57
    },
    {
      "property_id": "CH-1045",
      "name": "Concord Select Sedona",
      "brand": "Concord Select",
      "market_segment": "Upper-midscale select",
      "region": "Mountain West",
      "city": "Sedona",
      "state": "AZ",
      "lat": 34.91,
      "lng": -111.79,
      "rooms": 120,
      "adr_usd": 149.11,
      "occupancy_pct": 68.4,
      "revpar_usd": 101.99,
      "goppar_usd": 42.67,
      "otb_pace_vs_ly_pct": 9.8,
      "nps": 34
    },
    {
      "property_id": "CH-1046",
      "name": "Concord Grand Cabo San Lucas",
      "brand": "Concord Grand",
      "market_segment": "Luxury",
      "region": "Mexico / Caribbean",
      "city": "Cabo San Lucas",
      "state": "MX",
      "lat": 22.92,
      "lng": -109.92,
      "rooms": 316,
      "adr_usd": 449.79,
      "occupancy_pct": 79.7,
      "revpar_usd": 358.48,
      "goppar_usd": 154.84,
      "otb_pace_vs_ly_pct": 2.1,
      "nps": 51
    },
    {
      "property_id": "CH-1047",
      "name": "Concord Grand Oklahoma City",
      "brand": "Concord Grand",
      "market_segment": "Luxury",
      "region": "South Central",
      "city": "Oklahoma City",
      "state": "OK",
      "lat": 35.47,
      "lng": -97.55,
      "rooms": 342,
      "adr_usd": 408.96,
      "occupancy_pct": 78.5,
      "revpar_usd": 321.03,
      "goppar_usd": 117.39,
      "otb_pace_vs_ly_pct": 10.2,
      "nps": 61
    },
    {
      "property_id": "CH-1048",
      "name": "Concord Express Asheville",
      "brand": "Concord Express",
      "market_segment": "Midscale select",
      "region": "Southeast",
      "city": "Asheville",
      "state": "NC",
      "lat": 35.58,
      "lng": -82.52,
      "rooms": 96,
      "adr_usd": 136.05,
      "occupancy_pct": 63.5,
      "revpar_usd": 86.39,
      "goppar_usd": 33.23,
      "otb_pace_vs_ly_pct": -4.6,
      "nps": 60
    },
    {
      "property_id": "CH-1049",
      "name": "Concord Heritage Fort Lauderdale",
      "brand": "Concord Heritage",
      "market_segment": "Upscale full-service",
      "region": "Southeast",
      "city": "Fort Lauderdale",
      "state": "FL",
      "lat": 26.09,
      "lng": -80.12,
      "rooms": 149,
      "adr_usd": 263.72,
      "occupancy_pct": 77,
      "revpar_usd": 203.06,
      "goppar_usd": 81.9,
      "otb_pace_vs_ly_pct": -6.4,
      "nps": 45
    },
    {
      "property_id": "CH-1050",
      "name": "Concord Heritage Arlington",
      "brand": "Concord Heritage",
      "market_segment": "Upscale full-service",
      "region": "Northeast",
      "city": "Arlington",
      "state": "VA",
      "lat": 38.87,
      "lng": -77.11,
      "rooms": 195,
      "adr_usd": 264.87,
      "occupancy_pct": 79.1,
      "revpar_usd": 209.51,
      "goppar_usd": 71.44,
      "otb_pace_vs_ly_pct": 8.5,
      "nps": 28
    },
    {
      "property_id": "CH-1051",
      "name": "Concord Select Minneapolis",
      "brand": "Concord Select",
      "market_segment": "Upper-midscale select",
      "region": "Midwest",
      "city": "Minneapolis",
      "state": "MN",
      "lat": 44.95,
      "lng": -93.29,
      "rooms": 141,
      "adr_usd": 153.16,
      "occupancy_pct": 66.3,
      "revpar_usd": 101.55,
      "goppar_usd": 42.44,
      "otb_pace_vs_ly_pct": 7.9,
      "nps": 36
    },
    {
      "property_id": "CH-1052",
      "name": "Concord Charlotte",
      "brand": "Concord",
      "market_segment": "Upper-upscale",
      "region": "Southeast",
      "city": "Charlotte",
      "state": "NC",
      "lat": 35.23,
      "lng": -80.84,
      "rooms": 223,
      "adr_usd": 274.58,
      "occupancy_pct": 79.2,
      "revpar_usd": 217.47,
      "goppar_usd": 84.68,
      "otb_pace_vs_ly_pct": 8.4,
      "nps": 33
    },
    {
      "property_id": "CH-1053",
      "name": "Concord Select Boston",
      "brand": "Concord Select",
      "market_segment": "Upper-midscale select",
      "region": "Northeast",
      "city": "Boston",
      "state": "MA",
      "lat": 42.38,
      "lng": -71.07,
      "rooms": 150,
      "adr_usd": 172.77,
      "occupancy_pct": 82,
      "revpar_usd": 141.67,
      "goppar_usd": 63.17,
      "otb_pace_vs_ly_pct": 0.1,
      "nps": 46
    },
    {
      "property_id": "CH-1054",
      "name": "Concord Heritage Asheville",
      "brand": "Concord Heritage",
      "market_segment": "Upscale full-service",
      "region": "Southeast",
      "city": "Asheville",
      "state": "NC",
      "lat": 35.56,
      "lng": -82.57,
      "rooms": 183,
      "adr_usd": 213.49,
      "occupancy_pct": 81.6,
      "revpar_usd": 174.21,
      "goppar_usd": 75.41,
      "otb_pace_vs_ly_pct": 0.9,
      "nps": 49
    },
    {
      "property_id": "CH-1055",
      "name": "Concord Express Milwaukee",
      "brand": "Concord Express",
      "market_segment": "Midscale select",
      "region": "Midwest",
      "city": "Milwaukee",
      "state": "WI",
      "lat": 43.04,
      "lng": -87.88,
      "rooms": 116,
      "adr_usd": 143.75,
      "occupancy_pct": 77.9,
      "revpar_usd": 111.98,
      "goppar_usd": 36.38,
      "otb_pace_vs_ly_pct": 0.8,
      "nps": 43
    },
    {
      "property_id": "CH-1056",
      "name": "Concord Heritage Seattle",
      "brand": "Concord Heritage",
      "market_segment": "Upscale full-service",
      "region": "West Coast",
      "city": "Seattle",
      "state": "WA",
      "lat": 47.61,
      "lng": -122.37,
      "rooms": 126,
      "adr_usd": 198.91,
      "occupancy_pct": 69.7,
      "revpar_usd": 138.64,
      "goppar_usd": 44.83,
      "otb_pace_vs_ly_pct": 1.6,
      "nps": 44
    },
    {
      "property_id": "CH-1057",
      "name": "Concord Heritage Tampa",
      "brand": "Concord Heritage",
      "market_segment": "Upscale full-service",
      "region": "Southeast",
      "city": "Tampa",
      "state": "FL",
      "lat": 27.93,
      "lng": -82.47,
      "rooms": 217,
      "adr_usd": 248.33,
      "occupancy_pct": 68.4,
      "revpar_usd": 169.86,
      "goppar_usd": 74.86,
      "otb_pace_vs_ly_pct": 5.6,
      "nps": 44
    },
    {
      "property_id": "CH-1058",
      "name": "Concord Express Key West",
      "brand": "Concord Express",
      "market_segment": "Midscale select",
      "region": "Southeast",
      "city": "Key West",
      "state": "FL",
      "lat": 24.52,
      "lng": -81.74,
      "rooms": 98,
      "adr_usd": 193.03,
      "occupancy_pct": 79.9,
      "revpar_usd": 154.23,
      "goppar_usd": 70,
      "otb_pace_vs_ly_pct": -4.5,
      "nps": 30
    },
    {
      "property_id": "CH-1059",
      "name": "Concord Resorts Playa del Carmen",
      "brand": "Concord Resorts",
      "market_segment": "Resort",
      "region": "Mexico / Caribbean",
      "city": "Playa del Carmen",
      "state": "MX",
      "lat": 20.65,
      "lng": -87.06,
      "rooms": 267,
      "adr_usd": 566.01,
      "occupancy_pct": 61.9,
      "revpar_usd": 350.36,
      "goppar_usd": 146.9,
      "otb_pace_vs_ly_pct": 6.2,
      "nps": 65
    },
    {
      "property_id": "CH-1060",
      "name": "Concord Select Scottsdale",
      "brand": "Concord Select",
      "market_segment": "Upper-midscale select",
      "region": "Mountain West",
      "city": "Scottsdale",
      "state": "AZ",
      "lat": 33.49,
      "lng": -111.9,
      "rooms": 136,
      "adr_usd": 140.26,
      "occupancy_pct": 80.4,
      "revpar_usd": 112.77,
      "goppar_usd": 40.6,
      "otb_pace_vs_ly_pct": 3.8,
      "nps": 38
    },
    {
      "property_id": "CH-1061",
      "name": "Concord Oklahoma City",
      "brand": "Concord",
      "market_segment": "Upper-upscale",
      "region": "South Central",
      "city": "Oklahoma City",
      "state": "OK",
      "lat": 35.43,
      "lng": -97.55,
      "rooms": 180,
      "adr_usd": 260.67,
      "occupancy_pct": 78.4,
      "revpar_usd": 204.37,
      "goppar_usd": 80.93,
      "otb_pace_vs_ly_pct": 5.9,
      "nps": 43
    },
    {
      "property_id": "CH-1062",
      "name": "Concord Express Boston",
      "brand": "Concord Express",
      "market_segment": "Midscale select",
      "region": "Northeast",
      "city": "Boston",
      "state": "MA",
      "lat": 42.35,
      "lng": -71.04,
      "rooms": 113,
      "adr_usd": 145.89,
      "occupancy_pct": 63.3,
      "revpar_usd": 92.35,
      "goppar_usd": 38.62,
      "otb_pace_vs_ly_pct": 8.7,
      "nps": 57
    },
    {
      "property_id": "CH-1063",
      "name": "Concord Heritage Fort Lauderdale",
      "brand": "Concord Heritage",
      "market_segment": "Upscale full-service",
      "region": "Southeast",
      "city": "Fort Lauderdale",
      "state": "FL",
      "lat": 26.16,
      "lng": -80.11,
      "rooms": 201,
      "adr_usd": 252.07,
      "occupancy_pct": 70,
      "revpar_usd": 176.45,
      "goppar_usd": 56.59,
      "otb_pace_vs_ly_pct": -5.3,
      "nps": 52
    },
    {
      "property_id": "CH-1064",
      "name": "Concord Heritage Brooklyn",
      "brand": "Concord Heritage",
      "market_segment": "Upscale full-service",
      "region": "Northeast",
      "city": "Brooklyn",
      "state": "NY",
      "lat": 40.66,
      "lng": -73.94,
      "rooms": 141,
      "adr_usd": 243.1,
      "occupancy_pct": 66.6,
      "revpar_usd": 161.9,
      "goppar_usd": 64.74,
      "otb_pace_vs_ly_pct": -2.9,
      "nps": 32
    },
    {
      "property_id": "CH-1065",
      "name": "Concord Heritage Arlington",
      "brand": "Concord Heritage",
      "market_segment": "Upscale full-service",
      "region": "Northeast",
      "city": "Arlington",
      "state": "VA",
      "lat": 38.91,
      "lng": -77.09,
      "rooms": 157,
      "adr_usd": 246.11,
      "occupancy_pct": 67.6,
      "revpar_usd": 166.37,
      "goppar_usd": 64.27,
      "otb_pace_vs_ly_pct": 9.8,
      "nps": 32
    },
    {
      "property_id": "CH-1066",
      "name": "Concord Heritage Columbus",
      "brand": "Concord Heritage",
      "market_segment": "Upscale full-service",
      "region": "Midwest",
      "city": "Columbus",
      "state": "OH",
      "lat": 39.95,
      "lng": -83.01,
      "rooms": 196,
      "adr_usd": 226.08,
      "occupancy_pct": 71,
      "revpar_usd": 160.52,
      "goppar_usd": 55.23,
      "otb_pace_vs_ly_pct": 6,
      "nps": 51
    },
    {
      "property_id": "CH-1067",
      "name": "Concord Resorts Cabo San Lucas",
      "brand": "Concord Resorts",
      "market_segment": "Resort",
      "region": "Mexico / Caribbean",
      "city": "Cabo San Lucas",
      "state": "MX",
      "lat": 22.88,
      "lng": -109.93,
      "rooms": 220,
      "adr_usd": 679.76,
      "occupancy_pct": 76.3,
      "revpar_usd": 518.66,
      "goppar_usd": 191,
      "otb_pace_vs_ly_pct": -2.9,
      "nps": 52
    },
    {
      "property_id": "CH-1068",
      "name": "Concord Grand Cabo San Lucas",
      "brand": "Concord Grand",
      "market_segment": "Luxury",
      "region": "Mexico / Caribbean",
      "city": "Cabo San Lucas",
      "state": "MX",
      "lat": 22.92,
      "lng": -109.95,
      "rooms": 411,
      "adr_usd": 579.34,
      "occupancy_pct": 76.2,
      "revpar_usd": 441.46,
      "goppar_usd": 164.27,
      "otb_pace_vs_ly_pct": -2,
      "nps": 73
    },
    {
      "property_id": "CH-1069",
      "name": "Concord Grand Phoenix",
      "brand": "Concord Grand",
      "market_segment": "Luxury",
      "region": "Mountain West",
      "city": "Phoenix",
      "state": "AZ",
      "lat": 33.44,
      "lng": -112.08,
      "rooms": 387,
      "adr_usd": 440.66,
      "occupancy_pct": 81.6,
      "revpar_usd": 359.58,
      "goppar_usd": 125.59,
      "otb_pace_vs_ly_pct": -2,
      "nps": 62
    },
    {
      "property_id": "CH-1070",
      "name": "Concord Select Napa",
      "brand": "Concord Select",
      "market_segment": "Upper-midscale select",
      "region": "West Coast",
      "city": "Napa",
      "state": "CA",
      "lat": 38.31,
      "lng": -122.31,
      "rooms": 120,
      "adr_usd": 197.62,
      "occupancy_pct": 72.4,
      "revpar_usd": 143.08,
      "goppar_usd": 57.52,
      "otb_pace_vs_ly_pct": 8.6,
      "nps": 37
    },
    {
      "property_id": "CH-1071",
      "name": "Concord Select Milwaukee",
      "brand": "Concord Select",
      "market_segment": "Upper-midscale select",
      "region": "Midwest",
      "city": "Milwaukee",
      "state": "WI",
      "lat": 43.01,
      "lng": -87.9,
      "rooms": 142,
      "adr_usd": 160.7,
      "occupancy_pct": 72.4,
      "revpar_usd": 116.35,
      "goppar_usd": 39.87,
      "otb_pace_vs_ly_pct": 6.3,
      "nps": 29
    },
    {
      "property_id": "CH-1072",
      "name": "Concord Grand San Francisco",
      "brand": "Concord Grand",
      "market_segment": "Luxury",
      "region": "West Coast",
      "city": "San Francisco",
      "state": "CA",
      "lat": 37.74,
      "lng": -122.41,
      "rooms": 268,
      "adr_usd": 533.07,
      "occupancy_pct": 70.7,
      "revpar_usd": 376.88,
      "goppar_usd": 161.63,
      "otb_pace_vs_ly_pct": -1.5,
      "nps": 50
    },
    {
      "property_id": "CH-1073",
      "name": "Concord Heritage Salt Lake City",
      "brand": "Concord Heritage",
      "market_segment": "Upscale full-service",
      "region": "Mountain West",
      "city": "Salt Lake City",
      "state": "UT",
      "lat": 40.77,
      "lng": -111.91,
      "rooms": 143,
      "adr_usd": 197.84,
      "occupancy_pct": 68.5,
      "revpar_usd": 135.52,
      "goppar_usd": 48.59,
      "otb_pace_vs_ly_pct": -3.7,
      "nps": 48
    },
    {
      "property_id": "CH-1074",
      "name": "Concord Select Tampa",
      "brand": "Concord Select",
      "market_segment": "Upper-midscale select",
      "region": "Southeast",
      "city": "Tampa",
      "state": "FL",
      "lat": 27.97,
      "lng": -82.45,
      "rooms": 107,
      "adr_usd": 149.34,
      "occupancy_pct": 81.9,
      "revpar_usd": 122.31,
      "goppar_usd": 56.11,
      "otb_pace_vs_ly_pct": 9.1,
      "nps": 42
    },
    {
      "property_id": "CH-1075",
      "name": "Concord Grand New Orleans",
      "brand": "Concord Grand",
      "market_segment": "Luxury",
      "region": "South Central",
      "city": "New Orleans",
      "state": "LA",
      "lat": 29.94,
      "lng": -90.06,
      "rooms": 257,
      "adr_usd": 460.98,
      "occupancy_pct": 73.3,
      "revpar_usd": 337.9,
      "goppar_usd": 141.38,
      "otb_pace_vs_ly_pct": -3.2,
      "nps": 74
    },
    {
      "property_id": "CH-1076",
      "name": "Concord Express Dallas",
      "brand": "Concord Express",
      "market_segment": "Midscale select",
      "region": "South Central",
      "city": "Dallas",
      "state": "TX",
      "lat": 32.77,
      "lng": -96.79,
      "rooms": 93,
      "adr_usd": 129.34,
      "occupancy_pct": 70.5,
      "revpar_usd": 91.18,
      "goppar_usd": 41.85,
      "otb_pace_vs_ly_pct": 8.1,
      "nps": 34
    },
    {
      "property_id": "CH-1077",
      "name": "Concord Select Newark",
      "brand": "Concord Select",
      "market_segment": "Upper-midscale select",
      "region": "Northeast",
      "city": "Newark",
      "state": "NJ",
      "lat": 40.74,
      "lng": -74.18,
      "rooms": 125,
      "adr_usd": 146.95,
      "occupancy_pct": 70.3,
      "revpar_usd": 103.31,
      "goppar_usd": 41.89,
      "otb_pace_vs_ly_pct": 6.7,
      "nps": 50
    },
    {
      "property_id": "CH-1078",
      "name": "Concord Heritage Aspen",
      "brand": "Concord Heritage",
      "market_segment": "Upscale full-service",
      "region": "Mountain West",
      "city": "Aspen",
      "state": "CO",
      "lat": 39.21,
      "lng": -106.79,
      "rooms": 145,
      "adr_usd": 309.91,
      "occupancy_pct": 72.2,
      "revpar_usd": 223.76,
      "goppar_usd": 86.87,
      "otb_pace_vs_ly_pct": -5.5,
      "nps": 62
    },
    {
      "property_id": "CH-1079",
      "name": "Concord Select Nashville",
      "brand": "Concord Select",
      "market_segment": "Upper-midscale select",
      "region": "Southeast",
      "city": "Nashville",
      "state": "TN",
      "lat": 36.17,
      "lng": -86.79,
      "rooms": 97,
      "adr_usd": 193.05,
      "occupancy_pct": 70.9,
      "revpar_usd": 136.87,
      "goppar_usd": 46.78,
      "otb_pace_vs_ly_pct": -3.9,
      "nps": 43
    },
    {
      "property_id": "CH-1080",
      "name": "Concord Arlington",
      "brand": "Concord",
      "market_segment": "Upper-upscale",
      "region": "Northeast",
      "city": "Arlington",
      "state": "VA",
      "lat": 38.88,
      "lng": -77.05,
      "rooms": 219,
      "adr_usd": 249.97,
      "occupancy_pct": 79.4,
      "revpar_usd": 198.48,
      "goppar_usd": 74,
      "otb_pace_vs_ly_pct": 1.7,
      "nps": 28
    },
    {
      "property_id": "CH-1081",
      "name": "Concord Heritage Brooklyn",
      "brand": "Concord Heritage",
      "market_segment": "Upscale full-service",
      "region": "Northeast",
      "city": "Brooklyn",
      "state": "NY",
      "lat": 40.66,
      "lng": -73.98,
      "rooms": 129,
      "adr_usd": 247.46,
      "occupancy_pct": 81.7,
      "revpar_usd": 202.17,
      "goppar_usd": 74.63,
      "otb_pace_vs_ly_pct": 10.9,
      "nps": 61
    },
    {
      "property_id": "CH-1082",
      "name": "Concord Heritage Orlando",
      "brand": "Concord Heritage",
      "market_segment": "Upscale full-service",
      "region": "Southeast",
      "city": "Orlando",
      "state": "FL",
      "lat": 28.5,
      "lng": -81.4,
      "rooms": 171,
      "adr_usd": 202.2,
      "occupancy_pct": 69.1,
      "revpar_usd": 139.72,
      "goppar_usd": 60.16,
      "otb_pace_vs_ly_pct": 5.6,
      "nps": 59
    },
    {
      "property_id": "CH-1083",
      "name": "Concord Select Denver",
      "brand": "Concord Select",
      "market_segment": "Upper-midscale select",
      "region": "Mountain West",
      "city": "Denver",
      "state": "CO",
      "lat": 39.72,
      "lng": -104.95,
      "rooms": 125,
      "adr_usd": 148.14,
      "occupancy_pct": 68.2,
      "revpar_usd": 101.03,
      "goppar_usd": 40.58,
      "otb_pace_vs_ly_pct": -5.5,
      "nps": 52
    },
    {
      "property_id": "CH-1084",
      "name": "Concord Resorts Playa del Carmen",
      "brand": "Concord Resorts",
      "market_segment": "Resort",
      "region": "Mexico / Caribbean",
      "city": "Playa del Carmen",
      "state": "MX",
      "lat": 20.65,
      "lng": -87.08,
      "rooms": 290,
      "adr_usd": 505.14,
      "occupancy_pct": 75.5,
      "revpar_usd": 381.38,
      "goppar_usd": 167.36,
      "otb_pace_vs_ly_pct": 5,
      "nps": 72
    },
    {
      "property_id": "CH-1085",
      "name": "Concord Express Seattle",
      "brand": "Concord Express",
      "market_segment": "Midscale select",
      "region": "West Coast",
      "city": "Seattle",
      "state": "WA",
      "lat": 47.63,
      "lng": -122.31,
      "rooms": 101,
      "adr_usd": 127.64,
      "occupancy_pct": 79.8,
      "revpar_usd": 101.86,
      "goppar_usd": 44.43,
      "otb_pace_vs_ly_pct": -2,
      "nps": 33
    },
    {
      "property_id": "CH-1086",
      "name": "Concord Boston",
      "brand": "Concord",
      "market_segment": "Upper-upscale",
      "region": "Northeast",
      "city": "Boston",
      "state": "MA",
      "lat": 42.39,
      "lng": -71.1,
      "rooms": 240,
      "adr_usd": 306.52,
      "occupancy_pct": 71,
      "revpar_usd": 217.63,
      "goppar_usd": 96.79,
      "otb_pace_vs_ly_pct": -2.6,
      "nps": 29
    },
    {
      "property_id": "CH-1087",
      "name": "Concord Express Philadelphia",
      "brand": "Concord Express",
      "market_segment": "Midscale select",
      "region": "Northeast",
      "city": "Philadelphia",
      "state": "PA",
      "lat": 39.94,
      "lng": -75.15,
      "rooms": 91,
      "adr_usd": 131.29,
      "occupancy_pct": 70.9,
      "revpar_usd": 93.08,
      "goppar_usd": 30.77,
      "otb_pace_vs_ly_pct": 7,
      "nps": 31
    },
    {
      "property_id": "CH-1088",
      "name": "Concord Select Santa Barbara",
      "brand": "Concord Select",
      "market_segment": "Upper-midscale select",
      "region": "West Coast",
      "city": "Santa Barbara",
      "state": "CA",
      "lat": 34.39,
      "lng": -119.67,
      "rooms": 104,
      "adr_usd": 181.06,
      "occupancy_pct": 73.4,
      "revpar_usd": 132.9,
      "goppar_usd": 59.6,
      "otb_pace_vs_ly_pct": 0.1,
      "nps": 55
    },
    {
      "property_id": "CH-1089",
      "name": "Concord Heritage Hilton Head",
      "brand": "Concord Heritage",
      "market_segment": "Upscale full-service",
      "region": "Southeast",
      "city": "Hilton Head",
      "state": "SC",
      "lat": 32.23,
      "lng": -80.73,
      "rooms": 122,
      "adr_usd": 225.66,
      "occupancy_pct": 74,
      "revpar_usd": 166.99,
      "goppar_usd": 69.82,
      "otb_pace_vs_ly_pct": 2.8,
      "nps": 59
    },
    {
      "property_id": "CH-1090",
      "name": "Concord Express New Orleans",
      "brand": "Concord Express",
      "market_segment": "Midscale select",
      "region": "South Central",
      "city": "New Orleans",
      "state": "LA",
      "lat": 29.96,
      "lng": -90.06,
      "rooms": 99,
      "adr_usd": 153.27,
      "occupancy_pct": 78.3,
      "revpar_usd": 120.01,
      "goppar_usd": 39.9,
      "otb_pace_vs_ly_pct": 3.4,
      "nps": 50
    },
    {
      "property_id": "CH-1091",
      "name": "Concord Select Stamford",
      "brand": "Concord Select",
      "market_segment": "Upper-midscale select",
      "region": "Northeast",
      "city": "Stamford",
      "state": "CT",
      "lat": 41.03,
      "lng": -73.57,
      "rooms": 128,
      "adr_usd": 153.25,
      "occupancy_pct": 68.7,
      "revpar_usd": 105.28,
      "goppar_usd": 42.4,
      "otb_pace_vs_ly_pct": 9.6,
      "nps": 51
    },
    {
      "property_id": "CH-1092",
      "name": "Concord Select Stamford",
      "brand": "Concord Select",
      "market_segment": "Upper-midscale select",
      "region": "Northeast",
      "city": "Stamford",
      "state": "CT",
      "lat": 41.09,
      "lng": -73.54,
      "rooms": 127,
      "adr_usd": 189.81,
      "occupancy_pct": 81.4,
      "revpar_usd": 154.51,
      "goppar_usd": 67.55,
      "otb_pace_vs_ly_pct": -5.2,
      "nps": 55
    },
    {
      "property_id": "CH-1093",
      "name": "Concord Express San Diego",
      "brand": "Concord Express",
      "market_segment": "Midscale select",
      "region": "West Coast",
      "city": "San Diego",
      "state": "CA",
      "lat": 32.73,
      "lng": -117.16,
      "rooms": 101,
      "adr_usd": 140.61,
      "occupancy_pct": 68.5,
      "revpar_usd": 96.32,
      "goppar_usd": 35.77,
      "otb_pace_vs_ly_pct": 4.6,
      "nps": 46
    },
    {
      "property_id": "CH-1094",
      "name": "Concord Select Portland",
      "brand": "Concord Select",
      "market_segment": "Upper-midscale select",
      "region": "West Coast",
      "city": "Portland",
      "state": "OR",
      "lat": 45.55,
      "lng": -122.7,
      "rooms": 105,
      "adr_usd": 183.86,
      "occupancy_pct": 83.3,
      "revpar_usd": 153.16,
      "goppar_usd": 60.57,
      "otb_pace_vs_ly_pct": -2.6,
      "nps": 55
    },
    {
      "property_id": "CH-1095",
      "name": "Concord Select San Francisco",
      "brand": "Concord Select",
      "market_segment": "Upper-midscale select",
      "region": "West Coast",
      "city": "San Francisco",
      "state": "CA",
      "lat": 37.77,
      "lng": -122.4,
      "rooms": 138,
      "adr_usd": 242.28,
      "occupancy_pct": 76.6,
      "revpar_usd": 185.59,
      "goppar_usd": 63.43,
      "otb_pace_vs_ly_pct": -0.9,
      "nps": 61
    },
    {
      "property_id": "CH-1096",
      "name": "Concord Express Oklahoma City",
      "brand": "Concord Express",
      "market_segment": "Midscale select",
      "region": "South Central",
      "city": "Oklahoma City",
      "state": "OK",
      "lat": 35.46,
      "lng": -97.51,
      "rooms": 76,
      "adr_usd": 133,
      "occupancy_pct": 70.7,
      "revpar_usd": 94.03,
      "goppar_usd": 41.87,
      "otb_pace_vs_ly_pct": 3.2,
      "nps": 51
    },
    {
      "property_id": "CH-1097",
      "name": "Concord Select Boston",
      "brand": "Concord Select",
      "market_segment": "Upper-midscale select",
      "region": "Northeast",
      "city": "Boston",
      "state": "MA",
      "lat": 42.38,
      "lng": -71.05,
      "rooms": 131,
      "adr_usd": 154.97,
      "occupancy_pct": 70.1,
      "revpar_usd": 108.63,
      "goppar_usd": 39.92,
      "otb_pace_vs_ly_pct": 7.9,
      "nps": 44
    },
    {
      "property_id": "CH-1098",
      "name": "Concord Heritage Charleston",
      "brand": "Concord Heritage",
      "market_segment": "Upscale full-service",
      "region": "Southeast",
      "city": "Charleston",
      "state": "SC",
      "lat": 32.78,
      "lng": -79.93,
      "rooms": 152,
      "adr_usd": 257.91,
      "occupancy_pct": 73.1,
      "revpar_usd": 188.53,
      "goppar_usd": 69.44,
      "otb_pace_vs_ly_pct": 0.1,
      "nps": 36
    },
    {
      "property_id": "CH-1099",
      "name": "Concord Select Park City",
      "brand": "Concord Select",
      "market_segment": "Upper-midscale select",
      "region": "Mountain West",
      "city": "Park City",
      "state": "UT",
      "lat": 40.65,
      "lng": -111.52,
      "rooms": 117,
      "adr_usd": 194,
      "occupancy_pct": 80,
      "revpar_usd": 155.2,
      "goppar_usd": 60.76,
      "otb_pace_vs_ly_pct": 10,
      "nps": 45
    },
    {
      "property_id": "CH-1100",
      "name": "Concord Heritage Atlanta",
      "brand": "Concord Heritage",
      "market_segment": "Upscale full-service",
      "region": "Southeast",
      "city": "Atlanta",
      "state": "GA",
      "lat": 33.71,
      "lng": -84.38,
      "rooms": 192,
      "adr_usd": 254.36,
      "occupancy_pct": 71.2,
      "revpar_usd": 181.1,
      "goppar_usd": 81.46,
      "otb_pace_vs_ly_pct": 6.1,
      "nps": 41
    },
    {
      "property_id": "CH-1101",
      "name": "Concord Nashville",
      "brand": "Concord",
      "market_segment": "Upper-upscale",
      "region": "Southeast",
      "city": "Nashville",
      "state": "TN",
      "lat": 36.18,
      "lng": -86.75,
      "rooms": 251,
      "adr_usd": 265.1,
      "occupancy_pct": 69.7,
      "revpar_usd": 184.77,
      "goppar_usd": 59.63,
      "otb_pace_vs_ly_pct": 3.6,
      "nps": 29
    },
    {
      "property_id": "CH-1102",
      "name": "Concord Washington",
      "brand": "Concord",
      "market_segment": "Upper-upscale",
      "region": "Northeast",
      "city": "Washington",
      "state": "DC",
      "lat": 38.88,
      "lng": -77.07,
      "rooms": 245,
      "adr_usd": 282.99,
      "occupancy_pct": 84.8,
      "revpar_usd": 239.98,
      "goppar_usd": 86.34,
      "otb_pace_vs_ly_pct": -1.6,
      "nps": 54
    },
    {
      "property_id": "CH-1103",
      "name": "Concord Select Phoenix",
      "brand": "Concord Select",
      "market_segment": "Upper-midscale select",
      "region": "Mountain West",
      "city": "Phoenix",
      "state": "AZ",
      "lat": 33.43,
      "lng": -112.06,
      "rooms": 116,
      "adr_usd": 179.49,
      "occupancy_pct": 79.1,
      "revpar_usd": 141.98,
      "goppar_usd": 48.59,
      "otb_pace_vs_ly_pct": 6,
      "nps": 57
    },
    {
      "property_id": "CH-1104",
      "name": "Concord Grand Minneapolis",
      "brand": "Concord Grand",
      "market_segment": "Luxury",
      "region": "Midwest",
      "city": "Minneapolis",
      "state": "MN",
      "lat": 45.01,
      "lng": -93.29,
      "rooms": 276,
      "adr_usd": 401.16,
      "occupancy_pct": 77.5,
      "revpar_usd": 310.9,
      "goppar_usd": 118.31,
      "otb_pace_vs_ly_pct": -0.1,
      "nps": 71
    },
    {
      "property_id": "CH-1105",
      "name": "Concord Grand Los Angeles",
      "brand": "Concord Grand",
      "market_segment": "Luxury",
      "region": "West Coast",
      "city": "Los Angeles",
      "state": "CA",
      "lat": 34.07,
      "lng": -118.25,
      "rooms": 298,
      "adr_usd": 452.01,
      "occupancy_pct": 71.7,
      "revpar_usd": 324.09,
      "goppar_usd": 130.34,
      "otb_pace_vs_ly_pct": 4.7,
      "nps": 62
    },
    {
      "property_id": "CH-1106",
      "name": "Concord Select Stamford",
      "brand": "Concord Select",
      "market_segment": "Upper-midscale select",
      "region": "Northeast",
      "city": "Stamford",
      "state": "CT",
      "lat": 41.04,
      "lng": -73.53,
      "rooms": 114,
      "adr_usd": 163.37,
      "occupancy_pct": 68.1,
      "revpar_usd": 111.25,
      "goppar_usd": 36.23,
      "otb_pace_vs_ly_pct": 2.2,
      "nps": 51
    },
    {
      "property_id": "CH-1107",
      "name": "Concord Select Los Angeles",
      "brand": "Concord Select",
      "market_segment": "Upper-midscale select",
      "region": "West Coast",
      "city": "Los Angeles",
      "state": "CA",
      "lat": 34.06,
      "lng": -118.28,
      "rooms": 146,
      "adr_usd": 169.62,
      "occupancy_pct": 72.7,
      "revpar_usd": 123.31,
      "goppar_usd": 53.42,
      "otb_pace_vs_ly_pct": 4.2,
      "nps": 52
    },
    {
      "property_id": "CH-1108",
      "name": "Concord Heritage Houston",
      "brand": "Concord Heritage",
      "market_segment": "Upscale full-service",
      "region": "South Central",
      "city": "Houston",
      "state": "TX",
      "lat": 29.78,
      "lng": -95.36,
      "rooms": 120,
      "adr_usd": 234.91,
      "occupancy_pct": 71.5,
      "revpar_usd": 167.96,
      "goppar_usd": 55.25,
      "otb_pace_vs_ly_pct": -3.5,
      "nps": 51
    },
    {
      "property_id": "CH-1109",
      "name": "Concord Grand Oklahoma City",
      "brand": "Concord Grand",
      "market_segment": "Luxury",
      "region": "South Central",
      "city": "Oklahoma City",
      "state": "OK",
      "lat": 35.48,
      "lng": -97.54,
      "rooms": 296,
      "adr_usd": 436.08,
      "occupancy_pct": 72,
      "revpar_usd": 313.98,
      "goppar_usd": 133.14,
      "otb_pace_vs_ly_pct": -5.6,
      "nps": 77
    },
    {
      "property_id": "CH-1110",
      "name": "Concord Resorts Nassau",
      "brand": "Concord Resorts",
      "market_segment": "Resort",
      "region": "Mexico / Caribbean",
      "city": "Nassau",
      "state": "BS",
      "lat": 25.07,
      "lng": -77.36,
      "rooms": 404,
      "adr_usd": 589.99,
      "occupancy_pct": 63.2,
      "revpar_usd": 372.87,
      "goppar_usd": 161.53,
      "otb_pace_vs_ly_pct": 9.5,
      "nps": 69
    },
    {
      "property_id": "CH-1111",
      "name": "Concord Grand Hilton Head",
      "brand": "Concord Grand",
      "market_segment": "Luxury",
      "region": "Southeast",
      "city": "Hilton Head",
      "state": "SC",
      "lat": 32.24,
      "lng": -80.74,
      "rooms": 242,
      "adr_usd": 399.56,
      "occupancy_pct": 77,
      "revpar_usd": 307.66,
      "goppar_usd": 118.99,
      "otb_pace_vs_ly_pct": 2.7,
      "nps": 67
    },
    {
      "property_id": "CH-1112",
      "name": "Concord Grand Newark",
      "brand": "Concord Grand",
      "market_segment": "Luxury",
      "region": "Northeast",
      "city": "Newark",
      "state": "NJ",
      "lat": 40.7,
      "lng": -74.14,
      "rooms": 400,
      "adr_usd": 472.9,
      "occupancy_pct": 85.8,
      "revpar_usd": 405.75,
      "goppar_usd": 169.78,
      "otb_pace_vs_ly_pct": 3.8,
      "nps": 58
    },
    {
      "property_id": "CH-1113",
      "name": "Concord New York",
      "brand": "Concord",
      "market_segment": "Upper-upscale",
      "region": "Northeast",
      "city": "New York",
      "state": "NY",
      "lat": 40.73,
      "lng": -73.99,
      "rooms": 208,
      "adr_usd": 388.19,
      "occupancy_pct": 82.8,
      "revpar_usd": 321.42,
      "goppar_usd": 138.61,
      "otb_pace_vs_ly_pct": 6.1,
      "nps": 55
    },
    {
      "property_id": "CH-1114",
      "name": "Concord Express Charlotte",
      "brand": "Concord Express",
      "market_segment": "Midscale select",
      "region": "Southeast",
      "city": "Charlotte",
      "state": "NC",
      "lat": 35.26,
      "lng": -80.86,
      "rooms": 111,
      "adr_usd": 155.24,
      "occupancy_pct": 75.9,
      "revpar_usd": 117.83,
      "goppar_usd": 49.59,
      "otb_pace_vs_ly_pct": 6.4,
      "nps": 30
    },
    {
      "property_id": "CH-1115",
      "name": "Concord Grand Asheville",
      "brand": "Concord Grand",
      "market_segment": "Luxury",
      "region": "Southeast",
      "city": "Asheville",
      "state": "NC",
      "lat": 35.59,
      "lng": -82.53,
      "rooms": 361,
      "adr_usd": 370.88,
      "occupancy_pct": 82.4,
      "revpar_usd": 305.61,
      "goppar_usd": 130.24,
      "otb_pace_vs_ly_pct": 6.2,
      "nps": 75
    },
    {
      "property_id": "CH-1116",
      "name": "Concord Heritage Los Angeles",
      "brand": "Concord Heritage",
      "market_segment": "Upscale full-service",
      "region": "West Coast",
      "city": "Los Angeles",
      "state": "CA",
      "lat": 34.05,
      "lng": -118.27,
      "rooms": 170,
      "adr_usd": 209.12,
      "occupancy_pct": 80.8,
      "revpar_usd": 168.97,
      "goppar_usd": 61.16,
      "otb_pace_vs_ly_pct": 2.7,
      "nps": 57
    },
    {
      "property_id": "CH-1117",
      "name": "Concord Resorts Mexico City",
      "brand": "Concord Resorts",
      "market_segment": "Resort",
      "region": "Mexico / Caribbean",
      "city": "Mexico City",
      "state": "MX",
      "lat": 19.41,
      "lng": -99.17,
      "rooms": 217,
      "adr_usd": 451.02,
      "occupancy_pct": 69.8,
      "revpar_usd": 314.81,
      "goppar_usd": 121.99,
      "otb_pace_vs_ly_pct": 7.4,
      "nps": 60
    },
    {
      "property_id": "CH-1118",
      "name": "Concord Express New York",
      "brand": "Concord Express",
      "market_segment": "Midscale select",
      "region": "Northeast",
      "city": "New York",
      "state": "NY",
      "lat": 40.78,
      "lng": -73.97,
      "rooms": 79,
      "adr_usd": 187.53,
      "occupancy_pct": 72.8,
      "revpar_usd": 136.52,
      "goppar_usd": 48.1,
      "otb_pace_vs_ly_pct": 7.9,
      "nps": 33
    },
    {
      "property_id": "CH-1119",
      "name": "Concord Express Washington",
      "brand": "Concord Express",
      "market_segment": "Midscale select",
      "region": "Northeast",
      "city": "Washington",
      "state": "DC",
      "lat": 38.94,
      "lng": -77.05,
      "rooms": 95,
      "adr_usd": 146.61,
      "occupancy_pct": 77.3,
      "revpar_usd": 113.33,
      "goppar_usd": 47.37,
      "otb_pace_vs_ly_pct": 1.7,
      "nps": 62
    },
    {
      "property_id": "CH-1120",
      "name": "Concord Indianapolis",
      "brand": "Concord",
      "market_segment": "Upper-upscale",
      "region": "Midwest",
      "city": "Indianapolis",
      "state": "IN",
      "lat": 39.78,
      "lng": -86.13,
      "rooms": 190,
      "adr_usd": 331.57,
      "occupancy_pct": 76.6,
      "revpar_usd": 253.98,
      "goppar_usd": 112.78,
      "otb_pace_vs_ly_pct": 3.8,
      "nps": 31
    },
    {
      "property_id": "CH-1121",
      "name": "Concord Express Seattle",
      "brand": "Concord Express",
      "market_segment": "Midscale select",
      "region": "West Coast",
      "city": "Seattle",
      "state": "WA",
      "lat": 47.64,
      "lng": -122.37,
      "rooms": 106,
      "adr_usd": 120.36,
      "occupancy_pct": 71.6,
      "revpar_usd": 86.18,
      "goppar_usd": 38.75,
      "otb_pace_vs_ly_pct": 4,
      "nps": 47
    },
    {
      "property_id": "CH-1122",
      "name": "Concord Select Austin",
      "brand": "Concord Select",
      "market_segment": "Upper-midscale select",
      "region": "South Central",
      "city": "Austin",
      "state": "TX",
      "lat": 30.25,
      "lng": -97.75,
      "rooms": 149,
      "adr_usd": 169.23,
      "occupancy_pct": 73.6,
      "revpar_usd": 124.55,
      "goppar_usd": 54.09,
      "otb_pace_vs_ly_pct": 4.5,
      "nps": 43
    },
    {
      "property_id": "CH-1123",
      "name": "Concord Select Columbus",
      "brand": "Concord Select",
      "market_segment": "Upper-midscale select",
      "region": "Midwest",
      "city": "Columbus",
      "state": "OH",
      "lat": 39.93,
      "lng": -82.96,
      "rooms": 93,
      "adr_usd": 143.05,
      "occupancy_pct": 71.2,
      "revpar_usd": 101.85,
      "goppar_usd": 43.78,
      "otb_pace_vs_ly_pct": 4.2,
      "nps": 38
    },
    {
      "property_id": "CH-1124",
      "name": "Concord Express Key West",
      "brand": "Concord Express",
      "market_segment": "Midscale select",
      "region": "Southeast",
      "city": "Key West",
      "state": "FL",
      "lat": 24.55,
      "lng": -81.76,
      "rooms": 108,
      "adr_usd": 175.12,
      "occupancy_pct": 73.4,
      "revpar_usd": 128.54,
      "goppar_usd": 58.25,
      "otb_pace_vs_ly_pct": 7.8,
      "nps": 34
    },
    {
      "property_id": "CH-1125",
      "name": "Concord Select Orlando",
      "brand": "Concord Select",
      "market_segment": "Upper-midscale select",
      "region": "Southeast",
      "city": "Orlando",
      "state": "FL",
      "lat": 28.51,
      "lng": -81.35,
      "rooms": 128,
      "adr_usd": 156.55,
      "occupancy_pct": 75.3,
      "revpar_usd": 117.88,
      "goppar_usd": 46.52,
      "otb_pace_vs_ly_pct": -5.5,
      "nps": 37
    },
    {
      "property_id": "CH-1126",
      "name": "Concord Heritage Oklahoma City",
      "brand": "Concord Heritage",
      "market_segment": "Upscale full-service",
      "region": "South Central",
      "city": "Oklahoma City",
      "state": "OK",
      "lat": 35.49,
      "lng": -97.52,
      "rooms": 146,
      "adr_usd": 255.66,
      "occupancy_pct": 70.8,
      "revpar_usd": 181.01,
      "goppar_usd": 66.22,
      "otb_pace_vs_ly_pct": 6.9,
      "nps": 51
    },
    {
      "property_id": "CH-1127",
      "name": "Concord Express Phoenix",
      "brand": "Concord Express",
      "market_segment": "Midscale select",
      "region": "Mountain West",
      "city": "Phoenix",
      "state": "AZ",
      "lat": 33.48,
      "lng": -112.06,
      "rooms": 81,
      "adr_usd": 124.96,
      "occupancy_pct": 79.9,
      "revpar_usd": 99.84,
      "goppar_usd": 35.73,
      "otb_pace_vs_ly_pct": -2.7,
      "nps": 50
    },
    {
      "property_id": "CH-1128",
      "name": "Concord Milwaukee",
      "brand": "Concord",
      "market_segment": "Upper-upscale",
      "region": "Midwest",
      "city": "Milwaukee",
      "state": "WI",
      "lat": 43,
      "lng": -87.88,
      "rooms": 162,
      "adr_usd": 269.13,
      "occupancy_pct": 78,
      "revpar_usd": 209.92,
      "goppar_usd": 92.07,
      "otb_pace_vs_ly_pct": 8.3,
      "nps": 60
    },
    {
      "property_id": "CH-1129",
      "name": "Concord Express Tampa",
      "brand": "Concord Express",
      "market_segment": "Midscale select",
      "region": "Southeast",
      "city": "Tampa",
      "state": "FL",
      "lat": 27.96,
      "lng": -82.48,
      "rooms": 95,
      "adr_usd": 128.18,
      "occupancy_pct": 78.6,
      "revpar_usd": 100.75,
      "goppar_usd": 35.79,
      "otb_pace_vs_ly_pct": 9,
      "nps": 48
    },
    {
      "property_id": "CH-1130",
      "name": "Concord Detroit",
      "brand": "Concord",
      "market_segment": "Upper-upscale",
      "region": "Midwest",
      "city": "Detroit",
      "state": "MI",
      "lat": 42.37,
      "lng": -83.08,
      "rooms": 215,
      "adr_usd": 265.67,
      "occupancy_pct": 77.8,
      "revpar_usd": 206.69,
      "goppar_usd": 71.96,
      "otb_pace_vs_ly_pct": -5.6,
      "nps": 31
    },
    {
      "property_id": "CH-1131",
      "name": "Concord Select Washington",
      "brand": "Concord Select",
      "market_segment": "Upper-midscale select",
      "region": "Northeast",
      "city": "Washington",
      "state": "DC",
      "lat": 38.88,
      "lng": -77.01,
      "rooms": 117,
      "adr_usd": 166.75,
      "occupancy_pct": 67.3,
      "revpar_usd": 112.22,
      "goppar_usd": 42.25,
      "otb_pace_vs_ly_pct": -3.4,
      "nps": 47
    },
    {
      "property_id": "CH-1132",
      "name": "Concord Express Arlington",
      "brand": "Concord Express",
      "market_segment": "Midscale select",
      "region": "Northeast",
      "city": "Arlington",
      "state": "VA",
      "lat": 38.92,
      "lng": -77.13,
      "rooms": 109,
      "adr_usd": 140.72,
      "occupancy_pct": 76,
      "revpar_usd": 106.95,
      "goppar_usd": 44.59,
      "otb_pace_vs_ly_pct": 9,
      "nps": 39
    },
    {
      "property_id": "CH-1133",
      "name": "Concord Select Oklahoma City",
      "brand": "Concord Select",
      "market_segment": "Upper-midscale select",
      "region": "South Central",
      "city": "Oklahoma City",
      "state": "OK",
      "lat": 35.43,
      "lng": -97.48,
      "rooms": 95,
      "adr_usd": 151.96,
      "occupancy_pct": 73.3,
      "revpar_usd": 111.39,
      "goppar_usd": 40.12,
      "otb_pace_vs_ly_pct": -0.2,
      "nps": 32
    },
    {
      "property_id": "CH-1134",
      "name": "Concord Express Nashville",
      "brand": "Concord Express",
      "market_segment": "Midscale select",
      "region": "Southeast",
      "city": "Nashville",
      "state": "TN",
      "lat": 36.17,
      "lng": -86.76,
      "rooms": 88,
      "adr_usd": 132.34,
      "occupancy_pct": 66.2,
      "revpar_usd": 87.61,
      "goppar_usd": 30.24,
      "otb_pace_vs_ly_pct": -6.2,
      "nps": 45
    },
    {
      "property_id": "CH-1135",
      "name": "Concord Memphis",
      "brand": "Concord",
      "market_segment": "Upper-upscale",
      "region": "Southeast",
      "city": "Memphis",
      "state": "TN",
      "lat": 35.17,
      "lng": -90.08,
      "rooms": 203,
      "adr_usd": 306.61,
      "occupancy_pct": 69.1,
      "revpar_usd": 211.87,
      "goppar_usd": 76.92,
      "otb_pace_vs_ly_pct": 5.2,
      "nps": 36
    },
    {
      "property_id": "CH-1136",
      "name": "Concord Heritage Miami",
      "brand": "Concord Heritage",
      "market_segment": "Upscale full-service",
      "region": "Southeast",
      "city": "Miami",
      "state": "FL",
      "lat": 25.78,
      "lng": -80.16,
      "rooms": 198,
      "adr_usd": 228.15,
      "occupancy_pct": 64.8,
      "revpar_usd": 147.84,
      "goppar_usd": 57.25,
      "otb_pace_vs_ly_pct": 3.2,
      "nps": 62
    },
    {
      "property_id": "CH-1137",
      "name": "Concord Grand Orlando",
      "brand": "Concord Grand",
      "market_segment": "Luxury",
      "region": "Southeast",
      "city": "Orlando",
      "state": "FL",
      "lat": 28.52,
      "lng": -81.37,
      "rooms": 296,
      "adr_usd": 446.16,
      "occupancy_pct": 80.1,
      "revpar_usd": 357.37,
      "goppar_usd": 144.53,
      "otb_pace_vs_ly_pct": 2,
      "nps": 68
    },
    {
      "property_id": "CH-1138",
      "name": "Concord Select Fort Lauderdale",
      "brand": "Concord Select",
      "market_segment": "Upper-midscale select",
      "region": "Southeast",
      "city": "Fort Lauderdale",
      "state": "FL",
      "lat": 26.16,
      "lng": -80.15,
      "rooms": 118,
      "adr_usd": 170.89,
      "occupancy_pct": 81.6,
      "revpar_usd": 139.45,
      "goppar_usd": 49.68,
      "otb_pace_vs_ly_pct": 11.1,
      "nps": 60
    },
    {
      "property_id": "CH-1139",
      "name": "Concord Heritage San Antonio",
      "brand": "Concord Heritage",
      "market_segment": "Upscale full-service",
      "region": "South Central",
      "city": "San Antonio",
      "state": "TX",
      "lat": 29.46,
      "lng": -98.48,
      "rooms": 206,
      "adr_usd": 226.55,
      "occupancy_pct": 70,
      "revpar_usd": 158.59,
      "goppar_usd": 54.83,
      "otb_pace_vs_ly_pct": -6.1,
      "nps": 40
    },
    {
      "property_id": "CH-1140",
      "name": "Concord St. Louis",
      "brand": "Concord",
      "market_segment": "Upper-upscale",
      "region": "Midwest",
      "city": "St. Louis",
      "state": "MO",
      "lat": 38.62,
      "lng": -90.2,
      "rooms": 203,
      "adr_usd": 284.91,
      "occupancy_pct": 79.6,
      "revpar_usd": 226.79,
      "goppar_usd": 90.83,
      "otb_pace_vs_ly_pct": 4.5,
      "nps": 38
    },
    {
      "property_id": "CH-1141",
      "name": "Concord Express Aspen",
      "brand": "Concord Express",
      "market_segment": "Midscale select",
      "region": "Mountain West",
      "city": "Aspen",
      "state": "CO",
      "lat": 39.16,
      "lng": -106.82,
      "rooms": 87,
      "adr_usd": 177.5,
      "occupancy_pct": 69.3,
      "revpar_usd": 123.01,
      "goppar_usd": 55,
      "otb_pace_vs_ly_pct": 11,
      "nps": 48
    },
    {
      "property_id": "CH-1142",
      "name": "Concord Express Park City",
      "brand": "Concord Express",
      "market_segment": "Midscale select",
      "region": "Mountain West",
      "city": "Park City",
      "state": "UT",
      "lat": 40.68,
      "lng": -111.53,
      "rooms": 102,
      "adr_usd": 183.63,
      "occupancy_pct": 74.1,
      "revpar_usd": 136.07,
      "goppar_usd": 61.08,
      "otb_pace_vs_ly_pct": 7.3,
      "nps": 52
    }
  ]
}